{
  "P-강남구-0": {
    "name": "강남구 주차장 1",
    "address": "강남구 일원동 716-2",
    "district": "강남구",
    "lat": 37.506808,
    "lng": 127.031117
  },
  "P-강남구-1": {
    "name": "강남구 주차장 2",
    "address": "강남구 수서동 735-0",
    "district": "강남구",
    "lat": 37.508243,
    "lng": 127.032645
  },
  "P-강남구-2": {
    "name": "강남구 주차장 3",
    "address": "강남구 개포동 1266-0",
    "district": "강남구",
    "lat": 37.509678,
    "lng": 127.034172
  },
  "P-강남구-3": {
    "name": "강남구 주차장 4",
    "address": "강남구 대치동 514-1",
    "district": "강남구",
    "lat": 37.492909,
    "lng": 127.060022
  },
  "P-강남구-4": {
    "name": "강남구 주차장 5",
    "address": "강남구 일원동 722-1",
    "district": "강남구",
    "lat": 37.512549,
    "lng": 127.037228
  },
  "P-강남구-5": {
    "name": "강남구 주차장 6",
    "address": "강남구 신사동 668-0",
    "district": "강남구",
    "lat": 37.519407,
    "lng": 127.018301
  },
  "P-강남구-6": {
    "name": "강남구 주차장 7",
    "address": "강남구 압구정동 435-0",
    "district": "강남구",
    "lat": 37.526805,
    "lng": 127.025941
  },
  "P-강남구-7": {
    "name": "강남구 주차장 8",
    "address": "강남구 신사동 668-0",
    "district": "강남구",
    "lat": 37.520204,
    "lng": 127.01898
  },
  "P-강남구-8": {
    "name": "강남구 주차장 9",
    "address": "강남구 대치동 512-1",
    "district": "강남구",
    "lat": 37.494903,
    "lng": 127.06172
  },
  "P-강남구-9": {
    "name": "강남구 주차장 10",
    "address": "강남구 일원동 722-1",
    "district": "강남구",
    "lat": 37.519726,
    "lng": 127.044866
  },
  "P-강남구-10": {
    "name": "강남구 주차장 11",
    "address": "강남구 신사동 625-13",
    "district": "강남구",
    "lat": 37.5214,
    "lng": 127.019998
  },
  "P-강남구-11": {
    "name": "강남구 주차장 12",
    "address": "강남구 개포동 1-1",
    "district": "강남구",
    "lat": 37.522596,
    "lng": 127.047921
  },
  "P-강남구-12": {
    "name": "강남구 주차장 13",
    "address": "강남구 개포동 1-1",
    "district": "강남구",
    "lat": 37.524032,
    "lng": 127.049448
  },
  "P-강동구-0": {
    "name": "강동구 주차장 1",
    "address": "강동구 암사동 473-3",
    "district": "강동구",
    "lat": 37.538367,
    "lng": 127.127476
  },
  "P-강동구-1": {
    "name": "강동구 주차장 2",
    "address": "강동구 천호동 455-0",
    "district": "강동구",
    "lat": 37.539802,
    "lng": 127.129004
  },
  "P-강동구-2": {
    "name": "강동구 주차장 3",
    "address": "강동구 명일동 47-9",
    "district": "강동구",
    "lat": 37.541238,
    "lng": 127.130531
  },
  "P-강동구-3": {
    "name": "강동구 주차장 4",
    "address": "강동구 암사동 139-2",
    "district": "강동구",
    "lat": 37.542673,
    "lng": 127.132059
  },
  "P-강북구-0": {
    "name": "강북구 주차장 1",
    "address": "강북구 우이동 105-2",
    "district": "강북구",
    "lat": 37.653808,
    "lng": 127.035386
  },
  "P-강북구-1": {
    "name": "강북구 주차장 2",
    "address": "강북구 미아동 458-7",
    "district": "강북구",
    "lat": 37.655244,
    "lng": 127.036914
  },
  "P-강서구-0": {
    "name": "강서구 주차장 1",
    "address": "강서구 방화동 829-1",
    "district": "강서구",
    "lat": 37.567779,
    "lng": 126.862341
  },
  "P-강서구-1": {
    "name": "강서구 주차장 2",
    "address": "강서구 방화동 830-4",
    "district": "강서구",
    "lat": 37.533214,
    "lng": 126.863869
  },
  "P-강서구-2": {
    "name": "강서구 주차장 3",
    "address": "강서구 방화동 845-0",
    "district": "강서구",
    "lat": 37.53465,
    "lng": 126.865397
  },
  "P-강서구-3": {
    "name": "강서구 주차장 4",
    "address": "강서구 가양동 1488-12",
    "district": "강서구",
    "lat": 37.536085,
    "lng": 126.866924
  },
  "P-강서구-4": {
    "name": "강서구 주차장 5",
    "address": "강서구 가양동 1480-10",
    "district": "강서구",
    "lat": 37.53752,
    "lng": 126.868452
  },
  "P-강서구-5": {
    "name": "강서구 주차장 6",
    "address": "강서구 개화동 664-0",
    "district": "강서구",
    "lat": 37.538956,
    "lng": 126.869979
  },
  "P-강서구-6": {
    "name": "강서구 주차장 7",
    "address": "강서구 공항동 796-0",
    "district": "강서구",
    "lat": 37.540391,
    "lng": 126.871507
  },
  "P-강서구-7": {
    "name": "강서구 주차장 8",
    "address": "강서구 마곡동 739-0",
    "district": "강서구",
    "lat": 37.541826,
    "lng": 126.828035
  },
  "P-강서구-8": {
    "name": "강서구 주차장 9",
    "address": "강서구 가양동 1457-1",
    "district": "강서구",
    "lat": 37.543262,
    "lng": 126.829562
  },
  "P-강서구-9": {
    "name": "강서구 주차장 10",
    "address": "강서구 방화동 824-0",
    "district": "강서구",
    "lat": 37.544697,
    "lng": 126.83109
  },
  "P-강서구-10": {
    "name": "강서구 주차장 11",
    "address": "강서구 방화동 845-0",
    "district": "강서구",
    "lat": 37.546132,
    "lng": 126.832617
  },
  "P-관악구-0": {
    "name": "관악구 주차장 1",
    "address": "관악구 신림동 1467-3",
    "district": "관악구",
    "lat": 37.475068,
    "lng": 126.936245
  },
  "P-관악구-1": {
    "name": "관악구 주차장 2",
    "address": "관악구 신림동 498-0",
    "district": "관악구",
    "lat": 37.476503,
    "lng": 126.937772
  },
  "P-관악구-2": {
    "name": "관악구 주차장 3",
    "address": "관악구 신림동 1677-5",
    "district": "관악구",
    "lat": 37.477938,
    "lng": 126.9393
  },
  "P-광진구-0": {
    "name": "광진구 주차장 1",
    "address": "광진구 화양동 63-2",
    "district": "광진구",
    "lat": 37.539474,
    "lng": 127.071528
  },
  "P-광진구-1": {
    "name": "광진구 주차장 2",
    "address": "광진구 중곡동 230-12",
    "district": "광진구",
    "lat": 37.540909,
    "lng": 127.073055
  },
  "P-구로구-0": {
    "name": "구로구 주차장 1",
    "address": "구로구 구로동 810-3",
    "district": "구로구",
    "lat": 37.499244,
    "lng": 126.879683
  },
  "P-구로구-1": {
    "name": "구로구 주차장 2",
    "address": "구로구 구로동 414-13",
    "district": "구로구",
    "lat": 37.50068,
    "lng": 126.88121
  },
  "P-구로구-2": {
    "name": "구로구 주차장 3",
    "address": "구로구 구로동 94-1",
    "district": "구로구",
    "lat": 37.502115,
    "lng": 126.882738
  },
  "P-구로구-3": {
    "name": "구로구 주차장 4",
    "address": "구로구 구로동 120-3",
    "district": "구로구",
    "lat": 37.50355,
    "lng": 126.884266
  },
  "P-구로구-4": {
    "name": "구로구 주차장 5",
    "address": "구로구 천왕동 280-11",
    "district": "구로구",
    "lat": 37.504986,
    "lng": 126.885793
  },
  "P-구로구-5": {
    "name": "구로구 주차장 6",
    "address": "구로구 구로동 73-9",
    "district": "구로구",
    "lat": 37.506421,
    "lng": 126.887321
  },
  "P-구로구-6": {
    "name": "구로구 주차장 7",
    "address": "구로구 구로동 69-5",
    "district": "구로구",
    "lat": 37.507856,
    "lng": 126.888848
  },
  "P-구로구-7": {
    "name": "구로구 주차장 8",
    "address": "구로구 온수동 51-26",
    "district": "구로구",
    "lat": 37.509292,
    "lng": 126.890376
  },
  "P-구로구-8": {
    "name": "구로구 주차장 9",
    "address": "구로구 구로동 454-1",
    "district": "구로구",
    "lat": 37.510727,
    "lng": 126.891903
  },
  "P-금천구-0": {
    "name": "금천구 주차장 1",
    "address": "금천구 독산동 1081-4",
    "district": "금천구",
    "lat": 37.473062,
    "lng": 126.901531
  },
  "P-금천구-1": {
    "name": "금천구 주차장 2",
    "address": "금천구 가산동 691-3",
    "district": "금천구",
    "lat": 37.438498,
    "lng": 126.903059
  },
  "P-금천구-2": {
    "name": "금천구 주차장 3",
    "address": "금천구 시흥동 139-2",
    "district": "금천구",
    "lat": 37.439933,
    "lng": 126.904586
  },
  "P-노원구-0": {
    "name": "노원구 주차장 1",
    "address": "노원구 월계동 50-9",
    "district": "노원구",
    "lat": 37.639269,
    "lng": 127.067414
  },
  "P-노원구-1": {
    "name": "노원구 주차장 2",
    "address": "노원구 상계동 111-568",
    "district": "노원구",
    "lat": 37.640704,
    "lng": 127.068941
  },
  "P-도봉구-0": {
    "name": "도봉구 주차장 1",
    "address": "도봉구 도봉동 282-26",
    "district": "도봉구",
    "lat": 37.656739,
    "lng": 127.060769
  },
  "P-도봉구-1": {
    "name": "도봉구 주차장 2",
    "address": "도봉구 창동 330-0",
    "district": "도봉구",
    "lat": 37.658175,
    "lng": 127.062297
  },
  "P-도봉구-2": {
    "name": "도봉구 주차장 3",
    "address": "도봉구 도봉동 288-19",
    "district": "도봉구",
    "lat": 37.65961,
    "lng": 127.063824
  },
  "P-동대문구-0": {
    "name": "동대문구 주차장 1",
    "address": "동대문구 신설동 114-29",
    "district": "동대문구",
    "lat": 37.566645,
    "lng": 127.057852
  },
  "P-동대문구-1": {
    "name": "동대문구 주차장 2",
    "address": "동대문구 장안동 286-9",
    "district": "동대문구",
    "lat": 37.568081,
    "lng": 127.059379
  },
  "P-동대문구-2": {
    "name": "동대문구 주차장 3",
    "address": "동대문구 신설동 109-2",
    "district": "동대문구",
    "lat": 37.569516,
    "lng": 127.060907
  },
  "P-동대문구-3": {
    "name": "동대문구 주차장 4",
    "address": "동대문구 장안동 392-3",
    "district": "동대문구",
    "lat": 37.570951,
    "lng": 127.017434
  },
  "P-동작구-0": {
    "name": "동작구 주차장 1",
    "address": "동작구 동작동 316-3",
    "district": "동작구",
    "lat": 37.510387,
    "lng": 126.918662
  },
  "P-동작구-1": {
    "name": "동작구 주차장 2",
    "address": "동작구 신대방동 431-3",
    "district": "동작구",
    "lat": 37.511822,
    "lng": 126.92019
  },
  "P-마포구-0": {
    "name": "마포구 주차장 1",
    "address": "마포구 마포동 36-1",
    "district": "마포구",
    "lat": 37.567157,
    "lng": 126.884317
  },
  "P-마포구-1": {
    "name": "마포구 주차장 2",
    "address": "마포구 성산동 117-1",
    "district": "마포구",
    "lat": 37.568593,
    "lng": 126.885845
  },
  "P-마포구-2": {
    "name": "마포구 주차장 3",
    "address": "마포구 합정동 5-12",
    "district": "마포구",
    "lat": 37.570028,
    "lng": 126.887372
  },
  "P-마포구-3": {
    "name": "마포구 주차장 4",
    "address": "마포구 상암동 1695-0",
    "district": "마포구",
    "lat": 37.571463,
    "lng": 126.8889
  },
  "P-마포구-4": {
    "name": "마포구 주차장 5",
    "address": "마포구 상암동 481-94 ",
    "district": "마포구",
    "lat": 37.572899,
    "lng": 126.890428
  },
  "P-서대문구-0": {
    "name": "서대문구 주차장 1",
    "address": "서대문구 남가좌동 318-11",
    "district": "서대문구",
    "lat": 37.587134,
    "lng": 126.926855
  },
  "P-서초구-0": {
    "name": "서초구 주차장 1",
    "address": "서초구 방배동 507-1",
    "district": "서초구",
    "lat": 37.48363,
    "lng": 126.99463
  },
  "P-서초구-1": {
    "name": "서초구 주차장 2",
    "address": "서초구 반포동 115-5",
    "district": "서초구",
    "lat": 37.494605,
    "lng": 127.02551
  },
  "P-서초구-2": {
    "name": "서초구 주차장 3",
    "address": "서초구 반포동 118-3",
    "district": "서초구",
    "lat": 37.49604,
    "lng": 127.027038
  },
  "P-성동구-0": {
    "name": "성동구 주차장 1",
    "address": "성동구 상왕십리동 12-47",
    "district": "성동구",
    "lat": 37.577175,
    "lng": 127.032966
  },
  "P-성동구-1": {
    "name": "성동구 주차장 2",
    "address": "성동구 옥수동 401-1",
    "district": "성동구",
    "lat": 37.578611,
    "lng": 127.034493
  },
  "P-성동구-2": {
    "name": "성동구 주차장 3",
    "address": "성동구 성수동2가 273-15",
    "district": "성동구",
    "lat": 37.580046,
    "lng": 127.036021
  },
  "P-성동구-3": {
    "name": "성동구 주차장 4",
    "address": "성동구 마장동 459-6",
    "district": "성동구",
    "lat": 37.545481,
    "lng": 127.037548
  },
  "P-성북구-0": {
    "name": "성북구 주차장 1",
    "address": "성북구 성북동 237-3",
    "district": "성북구",
    "lat": 37.572917,
    "lng": 127.018976
  },
  "P-송파구-0": {
    "name": "송파구 주차장 1",
    "address": "송파구 신천동 14-0",
    "district": "송파구",
    "lat": 37.499452,
    "lng": 127.109703
  },
  "P-송파구-1": {
    "name": "송파구 주차장 2",
    "address": "송파구 장지동 600-2",
    "district": "송파구",
    "lat": 37.500887,
    "lng": 127.111231
  },
  "P-송파구-2": {
    "name": "송파구 주차장 3",
    "address": "송파구 신천동 27-0",
    "district": "송파구",
    "lat": 37.502323,
    "lng": 127.112759
  },
  "P-송파구-3": {
    "name": "송파구 주차장 4",
    "address": "송파구 신천동 11-1",
    "district": "송파구",
    "lat": 37.503758,
    "lng": 127.114286
  },
  "P-양천구-0": {
    "name": "양천구 주차장 1",
    "address": "양천구 신정동 943-25",
    "district": "양천구",
    "lat": 37.507693,
    "lng": 126.876314
  },
  "P-양천구-1": {
    "name": "양천구 주차장 2",
    "address": "양천구 목동 908-26",
    "district": "양천구",
    "lat": 37.509129,
    "lng": 126.877841
  },
  "P-양천구-2": {
    "name": "양천구 주차장 3",
    "address": "양천구 목동 905-32",
    "district": "양천구",
    "lat": 37.510564,
    "lng": 126.879369
  },
  "P-양천구-3": {
    "name": "양천구 주차장 4",
    "address": "양천구 신월동 411-1",
    "district": "양천구",
    "lat": 37.511999,
    "lng": 126.880897
  },
  "P-양천구-4": {
    "name": "양천구 주차장 5",
    "address": "양천구 목동 905-32",
    "district": "양천구",
    "lat": 37.513435,
    "lng": 126.882424
  },
  "P-영등포구-0": {
    "name": "영등포구 주차장 1",
    "address": "영등포구 당산동3가 370-3",
    "district": "영등포구",
    "lat": 37.52427,
    "lng": 126.913752
  },
  "P-영등포구-1": {
    "name": "영등포구 주차장 2",
    "address": "영등포구 당산동3가 2-1",
    "district": "영등포구",
    "lat": 37.525705,
    "lng": 126.915279
  },
  "P-영등포구-2": {
    "name": "영등포구 주차장 3",
    "address": "영등포구 신길동 812-0",
    "district": "영등포구",
    "lat": 37.527141,
    "lng": 126.916807
  },
  "P-영등포구-3": {
    "name": "영등포구 주차장 4",
    "address": "영등포구 당산동5가 9-15",
    "district": "영등포구",
    "lat": 37.528576,
    "lng": 126.918334
  },
  "P-영등포구-4": {
    "name": "영등포구 주차장 5",
    "address": "영등포구 영등포동4가 123-0",
    "district": "영등포구",
    "lat": 37.530011,
    "lng": 126.874862
  },
  "P-영등포구-5": {
    "name": "영등포구 주차장 6",
    "address": "영등포구 문래동3가 54-12",
    "district": "영등포구",
    "lat": 37.531447,
    "lng": 126.87639
  },
  "P-영등포구-6": {
    "name": "영등포구 주차장 7",
    "address": "영등포구 영등포동1가 111-1",
    "district": "영등포구",
    "lat": 37.532882,
    "lng": 126.877917
  },
  "P-영등포구-7": {
    "name": "영등포구 주차장 8",
    "address": "영등포구 양평동5가 44-1",
    "district": "영등포구",
    "lat": 37.534317,
    "lng": 126.879445
  },
  "P-영등포구-8": {
    "name": "영등포구 주차장 9",
    "address": "영등포구 여의도동 8-1",
    "district": "영등포구",
    "lat": 37.535753,
    "lng": 126.880972
  },
  "P-영등포구-9": {
    "name": "영등포구 주차장 10",
    "address": "영등포구 대림동 808-24",
    "district": "영등포구",
    "lat": 37.537188,
    "lng": 126.8825
  },
  "P-영등포구-10": {
    "name": "영등포구 주차장 11",
    "address": "영등포구 여의도동 5-0",
    "district": "영등포구",
    "lat": 37.538623,
    "lng": 126.884028
  },
  "P-영등포구-11": {
    "name": "영등포구 주차장 12",
    "address": "영등포구 여의도동 2-11",
    "district": "영등포구",
    "lat": 37.540059,
    "lng": 126.885555
  },
  "P-용산구-0": {
    "name": "용산구 주차장 1",
    "address": "용산구 한남동 728-27",
    "district": "용산구",
    "lat": 37.547494,
    "lng": 126.980883
  },
  "P-용산구-1": {
    "name": "용산구 주차장 2",
    "address": "용산구 한강로2가 12-9",
    "district": "용산구",
    "lat": 37.548929,
    "lng": 126.98241
  },
  "P-용산구-2": {
    "name": "용산구 주차장 3",
    "address": "용산구 용산동2가 1-1497",
    "district": "용산구",
    "lat": 37.550365,
    "lng": 126.983938
  },
  "P-용산구-3": {
    "name": "용산구 주차장 4",
    "address": "용산구 용산동6가 69-11",
    "district": "용산구",
    "lat": 37.5158,
    "lng": 126.985465
  },
  "P-용산구-4": {
    "name": "용산구 주차장 5",
    "address": "용산구 한남동 9-19",
    "district": "용산구",
    "lat": 37.517235,
    "lng": 126.986993
  },
  "P-용산구-5": {
    "name": "용산구 주차장 6",
    "address": "용산구 문배동 12-1",
    "district": "용산구",
    "lat": 37.518671,
    "lng": 126.988521
  },
  "P-용산구-6": {
    "name": "용산구 주차장 7",
    "address": "용산구 이촌동 173-1",
    "district": "용산구",
    "lat": 37.520106,
    "lng": 126.990048
  },
  "P-용산구-7": {
    "name": "용산구 주차장 8",
    "address": "용산구 이태원동 56-4",
    "district": "용산구",
    "lat": 37.521542,
    "lng": 126.991576
  },
  "P-용산구-8": {
    "name": "용산구 주차장 9",
    "address": "용산구 한강로2가 2-39",
    "district": "용산구",
    "lat": 37.522977,
    "lng": 126.993103
  },
  "P-은평구-0": {
    "name": "은평구 주차장 1",
    "address": "은평구 진관동 70-1",
    "district": "은평구",
    "lat": 37.594712,
    "lng": 126.933731
  },
  "P-은평구-1": {
    "name": "은평구 주차장 2",
    "address": "은평구 역촌동 41-8",
    "district": "은평구",
    "lat": 37.596148,
    "lng": 126.935259
  },
  "P-종로구-0": {
    "name": "종로구 주차장 1",
    "address": "종로구 세종로 80-1",
    "district": "종로구",
    "lat": 37.568383,
    "lng": 126.986886
  },
  "P-종로구-1": {
    "name": "종로구 주차장 2",
    "address": "종로구 훈정동 2-0",
    "district": "종로구",
    "lat": 37.569818,
    "lng": 126.988414
  },
  "P-종로구-2": {
    "name": "종로구 주차장 3",
    "address": "종로구 관수동 91-4",
    "district": "종로구",
    "lat": 37.571254,
    "lng": 126.989941
  },
  "P-종로구-3": {
    "name": "종로구 주차장 4",
    "address": "종로구 예지동 140-1",
    "district": "종로구",
    "lat": 37.572689,
    "lng": 126.991469
  },
  "P-종로구-4": {
    "name": "종로구 주차장 5",
    "address": "종로구 적선동 140-0",
    "district": "종로구",
    "lat": 37.574124,
    "lng": 126.992996
  },
  "P-종로구-5": {
    "name": "종로구 주차장 6",
    "address": "종로구 종로2가 38-4",
    "district": "종로구",
    "lat": 37.57556,
    "lng": 126.994524
  },
  "P-종로구-6": {
    "name": "종로구 주차장 7",
    "address": "종로구 서린동 63-0",
    "district": "종로구",
    "lat": 37.576995,
    "lng": 126.996052
  },
  "P-종로구-7": {
    "name": "종로구 주차장 8",
    "address": "종로구 창신동 436-87",
    "district": "종로구",
    "lat": 37.57843,
    "lng": 126.997579
  },
  "P-종로구-8": {
    "name": "종로구 주차장 9",
    "address": "종로구 인의동 107-1",
    "district": "종로구",
    "lat": 37.579866,
    "lng": 126.999107
  },
  "P-종로구-9": {
    "name": "종로구 주차장 10",
    "address": "종로구 관철동 13-14",
    "district": "종로구",
    "lat": 37.581301,
    "lng": 127.000634
  },
  "P-종로구-10": {
    "name": "종로구 주차장 11",
    "address": "종로구 종로5가 458-2",
    "district": "종로구",
    "lat": 37.582736,
    "lng": 126.957162
  },
  "P-종로구-11": {
    "name": "종로구 주차장 12",
    "address": "종로구 종로5가 458-2",
    "district": "종로구",
    "lat": 37.584172,
    "lng": 126.95869
  },
  "P-종로구-12": {
    "name": "종로구 주차장 13",
    "address": "종로구 예지동 140-1",
    "district": "종로구",
    "lat": 37.585607,
    "lng": 126.960217
  },
  "P-종로구-13": {
    "name": "종로구 주차장 14",
    "address": "종로구 관수동 91-4",
    "district": "종로구",
    "lat": 37.587042,
    "lng": 126.961745
  },
  "P-종로구-14": {
    "name": "종로구 주차장 15",
    "address": "종로구 사직동 240-0 (한국갤럽 앞 ~ 풍림스페이스본 버스정류장 전)",
    "district": "종로구",
    "lat": 37.588478,
    "lng": 126.963272
  },
  "P-종로구-15": {
    "name": "종로구 주차장 16",
    "address": "종로구 청운동 15-57 (벽산빌리지 9동 앞 ~ 청운중학교 100m 앞)",
    "district": "종로구",
    "lat": 37.589913,
    "lng": 126.9648
  },
  "P-종로구-16": {
    "name": "종로구 주차장 17",
    "address": "종로구 내자동 35-0 내자동 54(치과의원) ~ 필운동 227(금고 앞)",
    "district": "종로구",
    "lat": 37.591348,
    "lng": 126.966328
  },
  "P-종로구-17": {
    "name": "종로구 주차장 18",
    "address": "종로구 관철동 13-14",
    "district": "종로구",
    "lat": 37.556784,
    "lng": 126.967855
  },
  "P-종로구-18": {
    "name": "종로구 주차장 19",
    "address": "종로구 종로6가 289-49",
    "district": "종로구",
    "lat": 37.558219,
    "lng": 126.969383
  },
  "P-종로구-19": {
    "name": "종로구 주차장 20",
    "address": "종로구 관수동 91-4",
    "district": "종로구",
    "lat": 37.559654,
    "lng": 126.97091
  },
  "P-종로구-20": {
    "name": "종로구 주차장 21",
    "address": "종로구 와룡동 2-86 (창경궁주차장~홍화문)",
    "district": "종로구",
    "lat": 37.56109,
    "lng": 126.972438
  },
  "P-종로구-21": {
    "name": "종로구 주차장 22",
    "address": "종로구 내자동 131-0 내자동136(사직이용원) ~ 내자동75-4(가로등)",
    "district": "종로구",
    "lat": 37.562525,
    "lng": 126.973965
  },
  "P-종로구-22": {
    "name": "종로구 주차장 23",
    "address": "종로구 와룡동 2-86 (홍화문~선인문)",
    "district": "종로구",
    "lat": 37.56396,
    "lng": 126.975493
  },
  "P-종로구-23": {
    "name": "종로구 주차장 24",
    "address": "종로구 궁정동 15-0 (청운효자동 주민센터 ~ 무궁화동산 앞)",
    "district": "종로구",
    "lat": 37.565396,
    "lng": 126.977021
  },
  "P-종로구-24": {
    "name": "종로구 주차장 25",
    "address": "종로구 명륜3가 53-0",
    "district": "종로구",
    "lat": 37.566831,
    "lng": 126.978548
  },
  "P-중구-0": {
    "name": "중구 주차장 1",
    "address": "중구 을지로5가 40-3",
    "district": "중구",
    "lat": 37.558866,
    "lng": 126.998776
  },
  "P-중구-1": {
    "name": "중구 주차장 2",
    "address": "중구 필동2가 83-1",
    "district": "중구",
    "lat": 37.560302,
    "lng": 127.000303
  },
  "P-중구-2": {
    "name": "중구 주차장 3",
    "address": "중구 주교동 51-3",
    "district": "중구",
    "lat": 37.561737,
    "lng": 127.001831
  },
  "P-중구-3": {
    "name": "중구 주차장 4",
    "address": "중구 신당동 217-91 0",
    "district": "중구",
    "lat": 37.563172,
    "lng": 127.003359
  },
  "P-중구-4": {
    "name": "중구 주차장 5",
    "address": "중구 남대문로4가 24-1",
    "district": "중구",
    "lat": 37.564608,
    "lng": 127.004886
  },
  "P-중구-5": {
    "name": "중구 주차장 6",
    "address": "중구 을지로3가 282-8",
    "district": "중구",
    "lat": 37.566043,
    "lng": 127.006414
  },
  "P-중구-6": {
    "name": "중구 주차장 7",
    "address": "중구 남대문로5가 450-0",
    "district": "중구",
    "lat": 37.567478,
    "lng": 127.007941
  },
  "P-중구-7": {
    "name": "중구 주차장 8",
    "address": "중구 신당동 251-7",
    "district": "중구",
    "lat": 37.568914,
    "lng": 127.009469
  },
  "P-중구-8": {
    "name": "중구 주차장 9",
    "address": "중구 신당동 222-3",
    "district": "중구",
    "lat": 37.570349,
    "lng": 127.010996
  },
  "P-중구-9": {
    "name": "중구 주차장 10",
    "address": "중구 삼각동 111-1",
    "district": "중구",
    "lat": 37.571784,
    "lng": 127.012524
  },
  "P-중구-10": {
    "name": "중구 주차장 11",
    "address": "중구 을지로7가 2-36",
    "district": "중구",
    "lat": 37.57322,
    "lng": 127.014052
  },
  "P-중구-11": {
    "name": "중구 주차장 12",
    "address": "중구 남창동 282-10",
    "district": "중구",
    "lat": 37.574655,
    "lng": 127.015579
  },
  "P-중구-12": {
    "name": "중구 주차장 13",
    "address": "중구 남창동 51-4",
    "district": "중구",
    "lat": 37.57609,
    "lng": 127.017107
  },
  "P-중구-13": {
    "name": "중구 주차장 14",
    "address": "중구 방산동 4-47 0",
    "district": "중구",
    "lat": 37.577526,
    "lng": 127.018634
  },
  "P-중구-14": {
    "name": "중구 주차장 15",
    "address": "중구 주교동 123-1 0",
    "district": "중구",
    "lat": 37.578961,
    "lng": 127.020162
  },
  "P-중구-15": {
    "name": "중구 주차장 16",
    "address": "중구 을지로6가 17-442 0",
    "district": "중구",
    "lat": 37.580396,
    "lng": 126.97669
  },
  "P-중구-16": {
    "name": "중구 주차장 17",
    "address": "중구 을지로6가 17-442 0",
    "district": "중구",
    "lat": 37.581832,
    "lng": 126.978217
  },
  "P-중구-17": {
    "name": "중구 주차장 18",
    "address": "중구 신당동 217-91 0",
    "district": "중구",
    "lat": 37.547267,
    "lng": 126.979745
  },
  "P-중구-18": {
    "name": "중구 주차장 19",
    "address": "중구 신당동 217-91 0",
    "district": "중구",
    "lat": 37.548702,
    "lng": 126.981272
  },
  "P-중구-19": {
    "name": "중구 주차장 20",
    "address": "중구 방산동 52-1",
    "district": "중구",
    "lat": 37.550138,
    "lng": 126.9828
  },
  "P-중구-20": {
    "name": "중구 주차장 21",
    "address": "중구 남대문로3가 13-3 0",
    "district": "중구",
    "lat": 37.551573,
    "lng": 126.984327
  },
  "P-중구-21": {
    "name": "중구 주차장 22",
    "address": "중구 남대문로5가 541-0 0",
    "district": "중구",
    "lat": 37.553008,
    "lng": 126.985855
  },
  "P-중구-22": {
    "name": "중구 주차장 23",
    "address": "중구 남대문로4가 3-6 0",
    "district": "중구",
    "lat": 37.554444,
    "lng": 126.987383
  },
  "P-중구-23": {
    "name": "중구 주차장 24",
    "address": "중구 회현동1가 1-19",
    "district": "중구",
    "lat": 37.555879,
    "lng": 126.98891
  },
  "P-중구-24": {
    "name": "중구 주차장 25",
    "address": "중구 인현동1가 87-10",
    "district": "중구",
    "lat": 37.557315,
    "lng": 126.990438
  },
  "P-중구-25": {
    "name": "중구 주차장 26",
    "address": "중구 회현동1가 1-16",
    "district": "중구",
    "lat": 37.55875,
    "lng": 126.991965
  },
  "P-중구-26": {
    "name": "중구 주차장 27",
    "address": "중구 남창동 205-107",
    "district": "중구",
    "lat": 37.560185,
    "lng": 126.993493
  },
  "P-중구-27": {
    "name": "중구 주차장 28",
    "address": "중구 흥인동 162-1 0",
    "district": "중구",
    "lat": 37.561621,
    "lng": 126.995021
  },
  "P-중구-28": {
    "name": "중구 주차장 29",
    "address": "중구 방산동 4-47 0",
    "district": "중구",
    "lat": 37.563056,
    "lng": 126.996548
  },
  "P-중구-29": {
    "name": "중구 주차장 30",
    "address": "중구 회현동1가 1-15",
    "district": "중구",
    "lat": 37.564491,
    "lng": 126.998076
  },
  "P-중구-30": {
    "name": "중구 주차장 31",
    "address": "중구 남대문로3가 13-3 0",
    "district": "중구",
    "lat": 37.565927,
    "lng": 126.999603
  },
  "P-중구-31": {
    "name": "중구 주차장 32",
    "address": "중구 남대문로4가 3-6 0",
    "district": "중구",
    "lat": 37.567362,
    "lng": 127.001131
  },
  "P-중구-32": {
    "name": "중구 주차장 33",
    "address": "중구 남창동 235-1 0",
    "district": "중구",
    "lat": 37.568797,
    "lng": 127.002658
  },
  "P-중구-33": {
    "name": "중구 주차장 34",
    "address": "중구 을지로3가 296-24",
    "district": "중구",
    "lat": 37.570233,
    "lng": 127.004186
  },
  "P-중구-34": {
    "name": "중구 주차장 35",
    "address": "중구 오장동 69-3",
    "district": "중구",
    "lat": 37.571668,
    "lng": 127.005714
  },
  "P-중구-35": {
    "name": "중구 주차장 36",
    "address": "중구 을지로7가 112-3",
    "district": "중구",
    "lat": 37.573103,
    "lng": 127.007241
  },
  "P-중구-36": {
    "name": "중구 주차장 37",
    "address": "중구 태평로2가 113-1 (신협 ~ 세븐일레븐)",
    "district": "중구",
    "lat": 37.574539,
    "lng": 127.008769
  },
  "P-중구-37": {
    "name": "중구 주차장 38",
    "address": "중구 태평로1가 60-22 (코리아나호텔 주차장 입구 ~ 시의회 앞)",
    "district": "중구",
    "lat": 37.575974,
    "lng": 127.010296
  },
  "P-중구-38": {
    "name": "중구 주차장 39",
    "address": "중구 정동 5-5 (정동 5-5(시청역 2번 출구 앞)",
    "district": "중구",
    "lat": 37.577409,
    "lng": 127.011824
  },
  "P-중구-39": {
    "name": "중구 주차장 40",
    "address": "중구 예관동 22-1",
    "district": "중구",
    "lat": 37.578845,
    "lng": 127.013352
  },
  "P-중구-40": {
    "name": "중구 주차장 41",
    "address": "중구 예장동 8-172",
    "district": "중구",
    "lat": 37.58028,
    "lng": 127.014879
  },
  "P-중구-41": {
    "name": "중구 주차장 42",
    "address": "중구 예장동 4-1",
    "district": "중구",
    "lat": 37.581715,
    "lng": 127.016407
  },
  "P-중구-42": {
    "name": "중구 주차장 43",
    "address": "중구 을지로5가 40-2",
    "district": "중구",
    "lat": 37.547151,
    "lng": 127.017934
  },
  "P-중구-43": {
    "name": "중구 주차장 44",
    "address": "중구 신당동 204-92",
    "district": "중구",
    "lat": 37.548586,
    "lng": 127.019462
  },
  "P-중구-44": {
    "name": "중구 주차장 45",
    "address": "중구 충무로1가 52-47 (신세계면세점 명동점 옆)",
    "district": "중구",
    "lat": 37.550021,
    "lng": 126.97599
  },
  "P-중구-45": {
    "name": "중구 주차장 46",
    "address": "중구 중림동 155-1",
    "district": "중구",
    "lat": 37.551457,
    "lng": 126.977517
  },
  "P-중구-46": {
    "name": "중구 주차장 47",
    "address": "중구 회현동1가 1-16",
    "district": "중구",
    "lat": 37.552892,
    "lng": 126.979045
  },
  "P-중랑구-0": {
    "name": "중랑구 주차장 1",
    "address": "중랑구 신내동 647-0",
    "district": "중랑구",
    "lat": 37.596527,
    "lng": 127.075172
  },
  "P-중랑구-1": {
    "name": "중랑구 주차장 2",
    "address": "중랑구 면목동 168-2",
    "district": "중랑구",
    "lat": 37.597963,
    "lng": 127.0767
  }
}