{
  "P-강남구-0": {
    "name": "강남구 주차장 1",
    "address": "강남구 일원동 716-2",
    "district": "강남구",
    "lat": 37.5172,
    "lng": 127.0473
  },
  "P-강남구-1": {
    "name": "강남구 주차장 2",
    "address": "강남구 수서동 735-0",
    "district": "강남구",
    "lat": 37.5172,
    "lng": 127.0473
  },
  "P-강남구-2": {
    "name": "강남구 주차장 3",
    "address": "강남구 개포동 1266-0",
    "district": "강남구",
    "lat": 37.5172,
    "lng": 127.0473
  },
  "P-강남구-3": {
    "name": "강남구 주차장 4",
    "address": "강남구 대치동 514-1",
    "district": "강남구",
    "lat": 37.5172,
    "lng": 127.0473
  },
  "P-강남구-4": {
    "name": "강남구 주차장 5",
    "address": "강남구 일원동 722-1",
    "district": "강남구",
    "lat": 37.5172,
    "lng": 127.0473
  },
  "P-강남구-5": {
    "name": "강남구 주차장 6",
    "address": "강남구 신사동 668-0",
    "district": "강남구",
    "lat": 37.5172,
    "lng": 127.0473
  },
  "P-강남구-6": {
    "name": "강남구 주차장 7",
    "address": "강남구 압구정동 435-0",
    "district": "강남구",
    "lat": 37.5172,
    "lng": 127.0473
  },
  "P-강남구-7": {
    "name": "강남구 주차장 8",
    "address": "강남구 신사동 668-0",
    "district": "강남구",
    "lat": 37.5172,
    "lng": 127.0473
  },
  "P-강남구-8": {
    "name": "강남구 주차장 9",
    "address": "강남구 대치동 512-1",
    "district": "강남구",
    "lat": 37.5172,
    "lng": 127.0473
  },
  "P-강남구-9": {
    "name": "강남구 주차장 10",
    "address": "강남구 일원동 722-1",
    "district": "강남구",
    "lat": 37.5172,
    "lng": 127.0473
  },
  "P-강남구-10": {
    "name": "강남구 주차장 11",
    "address": "강남구 신사동 625-13",
    "district": "강남구",
    "lat": 37.5172,
    "lng": 127.0473
  },
  "P-강남구-11": {
    "name": "강남구 주차장 12",
    "address": "강남구 개포동 1-1",
    "district": "강남구",
    "lat": 37.5172,
    "lng": 127.0473
  },
  "P-강남구-12": {
    "name": "강남구 주차장 13",
    "address": "강남구 개포동 1-1",
    "district": "강남구",
    "lat": 37.5172,
    "lng": 127.0473
  },
  "P-강동구-0": {
    "name": "강동구 주차장 1",
    "address": "강동구 암사동 473-3",
    "district": "강동구",
    "lat": 37.5301,
    "lng": 127.1238
  },
  "P-강동구-1": {
    "name": "강동구 주차장 2",
    "address": "강동구 천호동 455-0",
    "district": "강동구",
    "lat": 37.5301,
    "lng": 127.1238
  },
  "P-강동구-2": {
    "name": "강동구 주차장 3",
    "address": "강동구 명일동 47-9",
    "district": "강동구",
    "lat": 37.5301,
    "lng": 127.1238
  },
  "P-강동구-3": {
    "name": "강동구 주차장 4",
    "address": "강동구 암사동 139-2",
    "district": "강동구",
    "lat": 37.5301,
    "lng": 127.1238
  },
  "P-강북구-0": {
    "name": "강북구 주차장 1",
    "address": "강북구 우이동 105-2",
    "district": "강북구",
    "lat": 37.6398,
    "lng": 127.0256
  },
  "P-강북구-1": {
    "name": "강북구 주차장 2",
    "address": "강북구 미아동 458-7",
    "district": "강북구",
    "lat": 37.6398,
    "lng": 127.0256
  },
  "P-강서구-0": {
    "name": "강서구 주차장 1",
    "address": "강서구 방화동 829-1",
    "district": "강서구",
    "lat": 37.5509,
    "lng": 126.8495
  },
  "P-강서구-1": {
    "name": "강서구 주차장 2",
    "address": "강서구 방화동 830-4",
    "district": "강서구",
    "lat": 37.5509,
    "lng": 126.8495
  },
  "P-강서구-2": {
    "name": "강서구 주차장 3",
    "address": "강서구 방화동 845-0",
    "district": "강서구",
    "lat": 37.5509,
    "lng": 126.8495
  },
  "P-강서구-3": {
    "name": "강서구 주차장 4",
    "address": "강서구 가양동 1488-12",
    "district": "강서구",
    "lat": 37.5509,
    "lng": 126.8495
  },
  "P-강서구-4": {
    "name": "강서구 주차장 5",
    "address": "강서구 가양동 1480-10",
    "district": "강서구",
    "lat": 37.5509,
    "lng": 126.8495
  },
  "P-강서구-5": {
    "name": "강서구 주차장 6",
    "address": "강서구 개화동 664-0",
    "district": "강서구",
    "lat": 37.5509,
    "lng": 126.8495
  },
  "P-강서구-6": {
    "name": "강서구 주차장 7",
    "address": "강서구 공항동 796-0",
    "district": "강서구",
    "lat": 37.5509,
    "lng": 126.8495
  },
  "P-강서구-7": {
    "name": "강서구 주차장 8",
    "address": "강서구 마곡동 739-0",
    "district": "강서구",
    "lat": 37.5509,
    "lng": 126.8495
  },
  "P-강서구-8": {
    "name": "강서구 주차장 9",
    "address": "강서구 가양동 1457-1",
    "district": "강서구",
    "lat": 37.5509,
    "lng": 126.8495
  },
  "P-강서구-9": {
    "name": "강서구 주차장 10",
    "address": "강서구 방화동 824-0",
    "district": "강서구",
    "lat": 37.5509,
    "lng": 126.8495
  },
  "P-강서구-10": {
    "name": "강서구 주차장 11",
    "address": "강서구 방화동 845-0",
    "district": "강서구",
    "lat": 37.5509,
    "lng": 126.8495
  },
  "P-관악구-0": {
    "name": "관악구 주차장 1",
    "address": "관악구 신림동 1467-3",
    "district": "관악구",
    "lat": 37.4784,
    "lng": 126.9516
  },
  "P-관악구-1": {
    "name": "관악구 주차장 2",
    "address": "관악구 신림동 498-0",
    "district": "관악구",
    "lat": 37.4784,
    "lng": 126.9516
  },
  "P-관악구-2": {
    "name": "관악구 주차장 3",
    "address": "관악구 신림동 1677-5",
    "district": "관악구",
    "lat": 37.4784,
    "lng": 126.9516
  },
  "P-광진구-0": {
    "name": "광진구 주차장 1",
    "address": "광진구 화양동 63-2",
    "district": "광진구",
    "lat": 37.5385,
    "lng": 127.0823
  },
  "P-광진구-1": {
    "name": "광진구 주차장 2",
    "address": "광진구 중곡동 230-12",
    "district": "광진구",
    "lat": 37.5385,
    "lng": 127.0823
  },
  "P-구로구-0": {
    "name": "구로구 주차장 1",
    "address": "구로구 구로동 810-3",
    "district": "구로구",
    "lat": 37.4954,
    "lng": 126.8874
  },
  "P-구로구-1": {
    "name": "구로구 주차장 2",
    "address": "구로구 구로동 414-13",
    "district": "구로구",
    "lat": 37.4954,
    "lng": 126.8874
  },
  "P-구로구-2": {
    "name": "구로구 주차장 3",
    "address": "구로구 구로동 94-1",
    "district": "구로구",
    "lat": 37.4954,
    "lng": 126.8874
  },
  "P-구로구-3": {
    "name": "구로구 주차장 4",
    "address": "구로구 구로동 120-3",
    "district": "구로구",
    "lat": 37.4954,
    "lng": 126.8874
  },
  "P-구로구-4": {
    "name": "구로구 주차장 5",
    "address": "구로구 천왕동 280-11",
    "district": "구로구",
    "lat": 37.4954,
    "lng": 126.8874
  },
  "P-구로구-5": {
    "name": "구로구 주차장 6",
    "address": "구로구 구로동 73-9",
    "district": "구로구",
    "lat": 37.4954,
    "lng": 126.8874
  },
  "P-구로구-6": {
    "name": "구로구 주차장 7",
    "address": "구로구 구로동 69-5",
    "district": "구로구",
    "lat": 37.4954,
    "lng": 126.8874
  },
  "P-구로구-7": {
    "name": "구로구 주차장 8",
    "address": "구로구 온수동 51-26",
    "district": "구로구",
    "lat": 37.4954,
    "lng": 126.8874
  },
  "P-구로구-8": {
    "name": "구로구 주차장 9",
    "address": "구로구 구로동 454-1",
    "district": "구로구",
    "lat": 37.4954,
    "lng": 126.8874
  },
  "P-금천구-0": {
    "name": "금천구 주차장 1",
    "address": "금천구 독산동 1081-4",
    "district": "금천구",
    "lat": 37.4563,
    "lng": 126.8955
  },
  "P-금천구-1": {
    "name": "금천구 주차장 2",
    "address": "금천구 가산동 691-3",
    "district": "금천구",
    "lat": 37.4563,
    "lng": 126.8955
  },
  "P-금천구-2": {
    "name": "금천구 주차장 3",
    "address": "금천구 시흥동 139-2",
    "district": "금천구",
    "lat": 37.4563,
    "lng": 126.8955
  },
  "P-노원구-0": {
    "name": "노원구 주차장 1",
    "address": "노원구 월계동 50-9",
    "district": "노원구",
    "lat": 37.6542,
    "lng": 127.0568
  },
  "P-노원구-1": {
    "name": "노원구 주차장 2",
    "address": "노원구 상계동 111-568",
    "district": "노원구",
    "lat": 37.6542,
    "lng": 127.0568
  },
  "P-도봉구-0": {
    "name": "도봉구 주차장 1",
    "address": "도봉구 도봉동 282-26",
    "district": "도봉구",
    "lat": 37.6688,
    "lng": 127.0471
  },
  "P-도봉구-1": {
    "name": "도봉구 주차장 2",
    "address": "도봉구 창동 330-0",
    "district": "도봉구",
    "lat": 37.6688,
    "lng": 127.0471
  },
  "P-도봉구-2": {
    "name": "도봉구 주차장 3",
    "address": "도봉구 도봉동 288-19",
    "district": "도봉구",
    "lat": 37.6688,
    "lng": 127.0471
  },
  "P-동대문구-0": {
    "name": "동대문구 주차장 1",
    "address": "동대문구 신설동 114-29",
    "district": "동대문구",
    "lat": 37.5744,
    "lng": 127.0396
  },
  "P-동대문구-1": {
    "name": "동대문구 주차장 2",
    "address": "동대문구 장안동 286-9",
    "district": "동대문구",
    "lat": 37.5744,
    "lng": 127.0396
  },
  "P-동대문구-2": {
    "name": "동대문구 주차장 3",
    "address": "동대문구 신설동 109-2",
    "district": "동대문구",
    "lat": 37.5744,
    "lng": 127.0396
  },
  "P-동대문구-3": {
    "name": "동대문구 주차장 4",
    "address": "동대문구 장안동 392-3",
    "district": "동대문구",
    "lat": 37.5744,
    "lng": 127.0396
  },
  "P-동작구-0": {
    "name": "동작구 주차장 1",
    "address": "동작구 동작동 316-3",
    "district": "동작구",
    "lat": 37.5124,
    "lng": 126.9393
  },
  "P-동작구-1": {
    "name": "동작구 주차장 2",
    "address": "동작구 신대방동 431-3",
    "district": "동작구",
    "lat": 37.5124,
    "lng": 126.9393
  },
  "P-마포구-0": {
    "name": "마포구 주차장 1",
    "address": "마포구 마포동 36-1",
    "district": "마포구",
    "lat": 37.5663,
    "lng": 126.9019
  },
  "P-마포구-1": {
    "name": "마포구 주차장 2",
    "address": "마포구 성산동 117-1",
    "district": "마포구",
    "lat": 37.5663,
    "lng": 126.9019
  },
  "P-마포구-2": {
    "name": "마포구 주차장 3",
    "address": "마포구 합정동 5-12",
    "district": "마포구",
    "lat": 37.5663,
    "lng": 126.9019
  },
  "P-마포구-3": {
    "name": "마포구 주차장 4",
    "address": "마포구 상암동 1695-0",
    "district": "마포구",
    "lat": 37.5663,
    "lng": 126.9019
  },
  "P-마포구-4": {
    "name": "마포구 주차장 5",
    "address": "마포구 상암동 481-94 ",
    "district": "마포구",
    "lat": 37.5663,
    "lng": 126.9019
  },
  "P-서대문구-0": {
    "name": "서대문구 주차장 1",
    "address": "서대문구 남가좌동 318-11",
    "district": "서대문구",
    "lat": 37.5791,
    "lng": 126.9368
  },
  "P-서초구-0": {
    "name": "서초구 주차장 1",
    "address": "서초구 방배동 507-1",
    "district": "서초구",
    "lat": 37.4837,
    "lng": 127.0324
  },
  "P-서초구-1": {
    "name": "서초구 주차장 2",
    "address": "서초구 반포동 115-5",
    "district": "서초구",
    "lat": 37.4837,
    "lng": 127.0324
  },
  "P-서초구-2": {
    "name": "서초구 주차장 3",
    "address": "서초구 반포동 118-3",
    "district": "서초구",
    "lat": 37.4837,
    "lng": 127.0324
  },
  "P-성동구-0": {
    "name": "성동구 주차장 1",
    "address": "성동구 상왕십리동 12-47",
    "district": "성동구",
    "lat": 37.5634,
    "lng": 127.0368
  },
  "P-성동구-1": {
    "name": "성동구 주차장 2",
    "address": "성동구 옥수동 401-1",
    "district": "성동구",
    "lat": 37.5634,
    "lng": 127.0368
  },
  "P-성동구-2": {
    "name": "성동구 주차장 3",
    "address": "성동구 성수동2가 273-15",
    "district": "성동구",
    "lat": 37.5634,
    "lng": 127.0368
  },
  "P-성동구-3": {
    "name": "성동구 주차장 4",
    "address": "성동구 마장동 459-6",
    "district": "성동구",
    "lat": 37.5634,
    "lng": 127.0368
  },
  "P-성북구-0": {
    "name": "성북구 주차장 1",
    "address": "성북구 성북동 237-3",
    "district": "성북구",
    "lat": 37.5894,
    "lng": 127.0167
  },
  "P-송파구-0": {
    "name": "송파구 주차장 1",
    "address": "송파구 신천동 14-0",
    "district": "송파구",
    "lat": 37.5145,
    "lng": 127.1059
  },
  "P-송파구-1": {
    "name": "송파구 주차장 2",
    "address": "송파구 장지동 600-2",
    "district": "송파구",
    "lat": 37.5145,
    "lng": 127.1059
  },
  "P-송파구-2": {
    "name": "송파구 주차장 3",
    "address": "송파구 신천동 27-0",
    "district": "송파구",
    "lat": 37.5145,
    "lng": 127.1059
  },
  "P-송파구-3": {
    "name": "송파구 주차장 4",
    "address": "송파구 신천동 11-1",
    "district": "송파구",
    "lat": 37.5145,
    "lng": 127.1059
  },
  "P-양천구-0": {
    "name": "양천구 주차장 1",
    "address": "양천구 신정동 943-25",
    "district": "양천구",
    "lat": 37.517,
    "lng": 126.8664
  },
  "P-양천구-1": {
    "name": "양천구 주차장 2",
    "address": "양천구 목동 908-26",
    "district": "양천구",
    "lat": 37.517,
    "lng": 126.8664
  },
  "P-양천구-2": {
    "name": "양천구 주차장 3",
    "address": "양천구 목동 905-32",
    "district": "양천구",
    "lat": 37.517,
    "lng": 126.8664
  },
  "P-양천구-3": {
    "name": "양천구 주차장 4",
    "address": "양천구 신월동 411-1",
    "district": "양천구",
    "lat": 37.517,
    "lng": 126.8664
  },
  "P-양천구-4": {
    "name": "양천구 주차장 5",
    "address": "양천구 목동 905-32",
    "district": "양천구",
    "lat": 37.517,
    "lng": 126.8664
  },
  "P-영등포구-0": {
    "name": "영등포구 주차장 1",
    "address": "영등포구 당산동3가 370-3",
    "district": "영등포구",
    "lat": 37.5264,
    "lng": 126.8962
  },
  "P-영등포구-1": {
    "name": "영등포구 주차장 2",
    "address": "영등포구 당산동3가 2-1",
    "district": "영등포구",
    "lat": 37.5264,
    "lng": 126.8962
  },
  "P-영등포구-2": {
    "name": "영등포구 주차장 3",
    "address": "영등포구 신길동 812-0",
    "district": "영등포구",
    "lat": 37.5264,
    "lng": 126.8962
  },
  "P-영등포구-3": {
    "name": "영등포구 주차장 4",
    "address": "영등포구 당산동5가 9-15",
    "district": "영등포구",
    "lat": 37.5264,
    "lng": 126.8962
  },
  "P-영등포구-4": {
    "name": "영등포구 주차장 5",
    "address": "영등포구 영등포동4가 123-0",
    "district": "영등포구",
    "lat": 37.5264,
    "lng": 126.8962
  },
  "P-영등포구-5": {
    "name": "영등포구 주차장 6",
    "address": "영등포구 문래동3가 54-12",
    "district": "영등포구",
    "lat": 37.5264,
    "lng": 126.8962
  },
  "P-영등포구-6": {
    "name": "영등포구 주차장 7",
    "address": "영등포구 영등포동1가 111-1",
    "district": "영등포구",
    "lat": 37.5264,
    "lng": 126.8962
  },
  "P-영등포구-7": {
    "name": "영등포구 주차장 8",
    "address": "영등포구 양평동5가 44-1",
    "district": "영등포구",
    "lat": 37.5264,
    "lng": 126.8962
  },
  "P-영등포구-8": {
    "name": "영등포구 주차장 9",
    "address": "영등포구 여의도동 8-1",
    "district": "영등포구",
    "lat": 37.5264,
    "lng": 126.8962
  },
  "P-영등포구-9": {
    "name": "영등포구 주차장 10",
    "address": "영등포구 대림동 808-24",
    "district": "영등포구",
    "lat": 37.5264,
    "lng": 126.8962
  },
  "P-영등포구-10": {
    "name": "영등포구 주차장 11",
    "address": "영등포구 여의도동 5-0",
    "district": "영등포구",
    "lat": 37.5264,
    "lng": 126.8962
  },
  "P-영등포구-11": {
    "name": "영등포구 주차장 12",
    "address": "영등포구 여의도동 2-11",
    "district": "영등포구",
    "lat": 37.5264,
    "lng": 126.8962
  },
  "P-용산구-0": {
    "name": "용산구 주차장 1",
    "address": "용산구 한남동 728-27",
    "district": "용산구",
    "lat": 37.5324,
    "lng": 126.99
  },
  "P-용산구-1": {
    "name": "용산구 주차장 2",
    "address": "용산구 한강로2가 12-9",
    "district": "용산구",
    "lat": 37.5324,
    "lng": 126.99
  },
  "P-용산구-2": {
    "name": "용산구 주차장 3",
    "address": "용산구 용산동2가 1-1497",
    "district": "용산구",
    "lat": 37.5324,
    "lng": 126.99
  },
  "P-용산구-3": {
    "name": "용산구 주차장 4",
    "address": "용산구 용산동6가 69-11",
    "district": "용산구",
    "lat": 37.5324,
    "lng": 126.99
  },
  "P-용산구-4": {
    "name": "용산구 주차장 5",
    "address": "용산구 한남동 9-19",
    "district": "용산구",
    "lat": 37.5324,
    "lng": 126.99
  },
  "P-용산구-5": {
    "name": "용산구 주차장 6",
    "address": "용산구 문배동 12-1",
    "district": "용산구",
    "lat": 37.5324,
    "lng": 126.99
  },
  "P-용산구-6": {
    "name": "용산구 주차장 7",
    "address": "용산구 이촌동 173-1",
    "district": "용산구",
    "lat": 37.5324,
    "lng": 126.99
  },
  "P-용산구-7": {
    "name": "용산구 주차장 8",
    "address": "용산구 이태원동 56-4",
    "district": "용산구",
    "lat": 37.5324,
    "lng": 126.99
  },
  "P-용산구-8": {
    "name": "용산구 주차장 9",
    "address": "용산구 한강로2가 2-39",
    "district": "용산구",
    "lat": 37.5324,
    "lng": 126.99
  },
  "P-은평구-0": {
    "name": "은평구 주차장 1",
    "address": "은평구 진관동 70-1",
    "district": "은평구",
    "lat": 37.6027,
    "lng": 126.9291
  },
  "P-은평구-1": {
    "name": "은평구 주차장 2",
    "address": "은평구 역촌동 41-8",
    "district": "은평구",
    "lat": 37.6027,
    "lng": 126.9291
  },
  "P-종로구-0": {
    "name": "종로구 주차장 1",
    "address": "종로구 세종로 80-1",
    "district": "종로구",
    "lat": 37.5735,
    "lng": 126.9792
  },
  "P-종로구-1": {
    "name": "종로구 주차장 2",
    "address": "종로구 훈정동 2-0",
    "district": "종로구",
    "lat": 37.5735,
    "lng": 126.9792
  },
  "P-종로구-2": {
    "name": "종로구 주차장 3",
    "address": "종로구 관수동 91-4",
    "district": "종로구",
    "lat": 37.5735,
    "lng": 126.9792
  },
  "P-종로구-3": {
    "name": "종로구 주차장 4",
    "address": "종로구 예지동 140-1",
    "district": "종로구",
    "lat": 37.5735,
    "lng": 126.9792
  },
  "P-종로구-4": {
    "name": "종로구 주차장 5",
    "address": "종로구 적선동 140-0",
    "district": "종로구",
    "lat": 37.5735,
    "lng": 126.9792
  },
  "P-종로구-5": {
    "name": "종로구 주차장 6",
    "address": "종로구 종로2가 38-4",
    "district": "종로구",
    "lat": 37.5735,
    "lng": 126.9792
  },
  "P-종로구-6": {
    "name": "종로구 주차장 7",
    "address": "종로구 서린동 63-0",
    "district": "종로구",
    "lat": 37.5735,
    "lng": 126.9792
  },
  "P-종로구-7": {
    "name": "종로구 주차장 8",
    "address": "종로구 창신동 436-87",
    "district": "종로구",
    "lat": 37.5735,
    "lng": 126.9792
  },
  "P-종로구-8": {
    "name": "종로구 주차장 9",
    "address": "종로구 인의동 107-1",
    "district": "종로구",
    "lat": 37.5735,
    "lng": 126.9792
  },
  "P-종로구-9": {
    "name": "종로구 주차장 10",
    "address": "종로구 관철동 13-14",
    "district": "종로구",
    "lat": 37.5735,
    "lng": 126.9792
  },
  "P-종로구-10": {
    "name": "종로구 주차장 11",
    "address": "종로구 종로5가 458-2",
    "district": "종로구",
    "lat": 37.5735,
    "lng": 126.9792
  },
  "P-종로구-11": {
    "name": "종로구 주차장 12",
    "address": "종로구 종로5가 458-2",
    "district": "종로구",
    "lat": 37.5735,
    "lng": 126.9792
  },
  "P-종로구-12": {
    "name": "종로구 주차장 13",
    "address": "종로구 예지동 140-1",
    "district": "종로구",
    "lat": 37.5735,
    "lng": 126.9792
  },
  "P-종로구-13": {
    "name": "종로구 주차장 14",
    "address": "종로구 관수동 91-4",
    "district": "종로구",
    "lat": 37.5735,
    "lng": 126.9792
  },
  "P-종로구-14": {
    "name": "종로구 주차장 15",
    "address": "종로구 사직동 240-0 (한국갤럽 앞 ~ 풍림스페이스본 버스정류장 전)",
    "district": "종로구",
    "lat": 37.5735,
    "lng": 126.9792
  },
  "P-종로구-15": {
    "name": "종로구 주차장 16",
    "address": "종로구 청운동 15-57 (벽산빌리지 9동 앞 ~ 청운중학교 100m 앞)",
    "district": "종로구",
    "lat": 37.5735,
    "lng": 126.9792
  },
  "P-종로구-16": {
    "name": "종로구 주차장 17",
    "address": "종로구 내자동 35-0 내자동 54(치과의원) ~ 필운동 227(금고 앞)",
    "district": "종로구",
    "lat": 37.5735,
    "lng": 126.9792
  },
  "P-종로구-17": {
    "name": "종로구 주차장 18",
    "address": "종로구 관철동 13-14",
    "district": "종로구",
    "lat": 37.5735,
    "lng": 126.9792
  },
  "P-종로구-18": {
    "name": "종로구 주차장 19",
    "address": "종로구 종로6가 289-49",
    "district": "종로구",
    "lat": 37.5735,
    "lng": 126.9792
  },
  "P-종로구-19": {
    "name": "종로구 주차장 20",
    "address": "종로구 관수동 91-4",
    "district": "종로구",
    "lat": 37.5735,
    "lng": 126.9792
  },
  "P-종로구-20": {
    "name": "종로구 주차장 21",
    "address": "종로구 와룡동 2-86 (창경궁주차장~홍화문)",
    "district": "종로구",
    "lat": 37.5735,
    "lng": 126.9792
  },
  "P-종로구-21": {
    "name": "종로구 주차장 22",
    "address": "종로구 내자동 131-0 내자동136(사직이용원) ~ 내자동75-4(가로등)",
    "district": "종로구",
    "lat": 37.5735,
    "lng": 126.9792
  },
  "P-종로구-22": {
    "name": "종로구 주차장 23",
    "address": "종로구 와룡동 2-86 (홍화문~선인문)",
    "district": "종로구",
    "lat": 37.5735,
    "lng": 126.9792
  },
  "P-종로구-23": {
    "name": "종로구 주차장 24",
    "address": "종로구 궁정동 15-0 (청운효자동 주민센터 ~ 무궁화동산 앞)",
    "district": "종로구",
    "lat": 37.5735,
    "lng": 126.9792
  },
  "P-종로구-24": {
    "name": "종로구 주차장 25",
    "address": "종로구 명륜3가 53-0",
    "district": "종로구",
    "lat": 37.5735,
    "lng": 126.9792
  },
  "P-중구-0": {
    "name": "중구 주차장 1",
    "address": "중구 을지로5가 40-3",
    "district": "중구",
    "lat": 37.5641,
    "lng": 126.9979
  },
  "P-중구-1": {
    "name": "중구 주차장 2",
    "address": "중구 필동2가 83-1",
    "district": "중구",
    "lat": 37.5641,
    "lng": 126.9979
  },
  "P-중구-2": {
    "name": "중구 주차장 3",
    "address": "중구 주교동 51-3",
    "district": "중구",
    "lat": 37.5641,
    "lng": 126.9979
  },
  "P-중구-3": {
    "name": "중구 주차장 4",
    "address": "중구 신당동 217-91 0",
    "district": "중구",
    "lat": 37.5641,
    "lng": 126.9979
  },
  "P-중구-4": {
    "name": "중구 주차장 5",
    "address": "중구 남대문로4가 24-1",
    "district": "중구",
    "lat": 37.5641,
    "lng": 126.9979
  },
  "P-중구-5": {
    "name": "중구 주차장 6",
    "address": "중구 을지로3가 282-8",
    "district": "중구",
    "lat": 37.5641,
    "lng": 126.9979
  },
  "P-중구-6": {
    "name": "중구 주차장 7",
    "address": "중구 남대문로5가 450-0",
    "district": "중구",
    "lat": 37.5641,
    "lng": 126.9979
  },
  "P-중구-7": {
    "name": "중구 주차장 8",
    "address": "중구 신당동 251-7",
    "district": "중구",
    "lat": 37.5641,
    "lng": 126.9979
  },
  "P-중구-8": {
    "name": "중구 주차장 9",
    "address": "중구 신당동 222-3",
    "district": "중구",
    "lat": 37.5641,
    "lng": 126.9979
  },
  "P-중구-9": {
    "name": "중구 주차장 10",
    "address": "중구 삼각동 111-1",
    "district": "중구",
    "lat": 37.5641,
    "lng": 126.9979
  },
  "P-중구-10": {
    "name": "중구 주차장 11",
    "address": "중구 을지로7가 2-36",
    "district": "중구",
    "lat": 37.5641,
    "lng": 126.9979
  },
  "P-중구-11": {
    "name": "중구 주차장 12",
    "address": "중구 남창동 282-10",
    "district": "중구",
    "lat": 37.5641,
    "lng": 126.9979
  },
  "P-중구-12": {
    "name": "중구 주차장 13",
    "address": "중구 남창동 51-4",
    "district": "중구",
    "lat": 37.5641,
    "lng": 126.9979
  },
  "P-중구-13": {
    "name": "중구 주차장 14",
    "address": "중구 방산동 4-47 0",
    "district": "중구",
    "lat": 37.5641,
    "lng": 126.9979
  },
  "P-중구-14": {
    "name": "중구 주차장 15",
    "address": "중구 주교동 123-1 0",
    "district": "중구",
    "lat": 37.5641,
    "lng": 126.9979
  },
  "P-중구-15": {
    "name": "중구 주차장 16",
    "address": "중구 을지로6가 17-442 0",
    "district": "중구",
    "lat": 37.5641,
    "lng": 126.9979
  },
  "P-중구-16": {
    "name": "중구 주차장 17",
    "address": "중구 을지로6가 17-442 0",
    "district": "중구",
    "lat": 37.5641,
    "lng": 126.9979
  },
  "P-중구-17": {
    "name": "중구 주차장 18",
    "address": "중구 신당동 217-91 0",
    "district": "중구",
    "lat": 37.5641,
    "lng": 126.9979
  },
  "P-중구-18": {
    "name": "중구 주차장 19",
    "address": "중구 신당동 217-91 0",
    "district": "중구",
    "lat": 37.5641,
    "lng": 126.9979
  },
  "P-중구-19": {
    "name": "중구 주차장 20",
    "address": "중구 방산동 52-1",
    "district": "중구",
    "lat": 37.5641,
    "lng": 126.9979
  },
  "P-중구-20": {
    "name": "중구 주차장 21",
    "address": "중구 남대문로3가 13-3 0",
    "district": "중구",
    "lat": 37.5641,
    "lng": 126.9979
  },
  "P-중구-21": {
    "name": "중구 주차장 22",
    "address": "중구 남대문로5가 541-0 0",
    "district": "중구",
    "lat": 37.5641,
    "lng": 126.9979
  },
  "P-중구-22": {
    "name": "중구 주차장 23",
    "address": "중구 남대문로4가 3-6 0",
    "district": "중구",
    "lat": 37.5641,
    "lng": 126.9979
  },
  "P-중구-23": {
    "name": "중구 주차장 24",
    "address": "중구 회현동1가 1-19",
    "district": "중구",
    "lat": 37.5641,
    "lng": 126.9979
  },
  "P-중구-24": {
    "name": "중구 주차장 25",
    "address": "중구 인현동1가 87-10",
    "district": "중구",
    "lat": 37.5641,
    "lng": 126.9979
  },
  "P-중구-25": {
    "name": "중구 주차장 26",
    "address": "중구 회현동1가 1-16",
    "district": "중구",
    "lat": 37.5641,
    "lng": 126.9979
  },
  "P-중구-26": {
    "name": "중구 주차장 27",
    "address": "중구 남창동 205-107",
    "district": "중구",
    "lat": 37.5641,
    "lng": 126.9979
  },
  "P-중구-27": {
    "name": "중구 주차장 28",
    "address": "중구 흥인동 162-1 0",
    "district": "중구",
    "lat": 37.5641,
    "lng": 126.9979
  },
  "P-중구-28": {
    "name": "중구 주차장 29",
    "address": "중구 방산동 4-47 0",
    "district": "중구",
    "lat": 37.5641,
    "lng": 126.9979
  },
  "P-중구-29": {
    "name": "중구 주차장 30",
    "address": "중구 회현동1가 1-15",
    "district": "중구",
    "lat": 37.5641,
    "lng": 126.9979
  },
  "P-중구-30": {
    "name": "중구 주차장 31",
    "address": "중구 남대문로3가 13-3 0",
    "district": "중구",
    "lat": 37.5641,
    "lng": 126.9979
  },
  "P-중구-31": {
    "name": "중구 주차장 32",
    "address": "중구 남대문로4가 3-6 0",
    "district": "중구",
    "lat": 37.5641,
    "lng": 126.9979
  },
  "P-중구-32": {
    "name": "중구 주차장 33",
    "address": "중구 남창동 235-1 0",
    "district": "중구",
    "lat": 37.5641,
    "lng": 126.9979
  },
  "P-중구-33": {
    "name": "중구 주차장 34",
    "address": "중구 을지로3가 296-24",
    "district": "중구",
    "lat": 37.5641,
    "lng": 126.9979
  },
  "P-중구-34": {
    "name": "중구 주차장 35",
    "address": "중구 오장동 69-3",
    "district": "중구",
    "lat": 37.5641,
    "lng": 126.9979
  },
  "P-중구-35": {
    "name": "중구 주차장 36",
    "address": "중구 을지로7가 112-3",
    "district": "중구",
    "lat": 37.5641,
    "lng": 126.9979
  },
  "P-중구-36": {
    "name": "중구 주차장 37",
    "address": "중구 태평로2가 113-1 (신협 ~ 세븐일레븐)",
    "district": "중구",
    "lat": 37.5641,
    "lng": 126.9979
  },
  "P-중구-37": {
    "name": "중구 주차장 38",
    "address": "중구 태평로1가 60-22 (코리아나호텔 주차장 입구 ~ 시의회 앞)",
    "district": "중구",
    "lat": 37.5641,
    "lng": 126.9979
  },
  "P-중구-38": {
    "name": "중구 주차장 39",
    "address": "중구 정동 5-5 (정동 5-5(시청역 2번 출구 앞)",
    "district": "중구",
    "lat": 37.5641,
    "lng": 126.9979
  },
  "P-중구-39": {
    "name": "중구 주차장 40",
    "address": "중구 예관동 22-1",
    "district": "중구",
    "lat": 37.5641,
    "lng": 126.9979
  },
  "P-중구-40": {
    "name": "중구 주차장 41",
    "address": "중구 예장동 8-172",
    "district": "중구",
    "lat": 37.5641,
    "lng": 126.9979
  },
  "P-중구-41": {
    "name": "중구 주차장 42",
    "address": "중구 예장동 4-1",
    "district": "중구",
    "lat": 37.5641,
    "lng": 126.9979
  },
  "P-중구-42": {
    "name": "중구 주차장 43",
    "address": "중구 을지로5가 40-2",
    "district": "중구",
    "lat": 37.5641,
    "lng": 126.9979
  },
  "P-중구-43": {
    "name": "중구 주차장 44",
    "address": "중구 신당동 204-92",
    "district": "중구",
    "lat": 37.5641,
    "lng": 126.9979
  },
  "P-중구-44": {
    "name": "중구 주차장 45",
    "address": "중구 충무로1가 52-47 (신세계면세점 명동점 옆)",
    "district": "중구",
    "lat": 37.5641,
    "lng": 126.9979
  },
  "P-중구-45": {
    "name": "중구 주차장 46",
    "address": "중구 중림동 155-1",
    "district": "중구",
    "lat": 37.5641,
    "lng": 126.9979
  },
  "P-중구-46": {
    "name": "중구 주차장 47",
    "address": "중구 회현동1가 1-16",
    "district": "중구",
    "lat": 37.5641,
    "lng": 126.9979
  },
  "P-중랑구-0": {
    "name": "중랑구 주차장 1",
    "address": "중랑구 신내동 647-0",
    "district": "중랑구",
    "lat": 37.6063,
    "lng": 127.0925
  },
  "P-중랑구-1": {
    "name": "중랑구 주차장 2",
    "address": "중랑구 면목동 168-2",
    "district": "중랑구",
    "lat": 37.6063,
    "lng": 127.0925
  }
}